$GPRMC,143003.000,A,3150.7238,N,11711.7278,E,0.00,0.00,071020,,,A*6B
$GPRMC,144002.000,A,3150.7238,N,11711.7278,E,0.00,0.00,071020,,,A*6D
$GPRMC,145002.000,A,3150.7238,N,11711.7278,E,0.00,0.00,071020,,,A*6C
$GPRMC,150001.000,A,3150.7238,N,11711.7278,E,0.00,0.00,071020,,,A*6B
$GPRMC,151001.000,A,3150.7238,N,11711.7278,E,0.00,0.00,071020,,,A*6A
$GPRMC,152003.000,A,3150.7238,N,11711.7278,E,0.00,0.00,071020,,,A*6B
$GPRMC,153001.000,A,3150.7238,N,11711.7278,E,0.00,0.00,071020,,,A*68
$GPRMC,154002.000,A,3150.7238,N,11711.7278,E,0.00,0.00,071020,,,A*6C
$GPRMC,155001.000,A,3150.7238,N,11711.7278,E,0.00,0.00,071020,,,A*6E
$GPRMC,160001.000,A,3150.7238,N,11711.7278,E,0.00,0.00,071020,,,A*68
$GPRMC,161001.000,A,3150.7238,N,11711.7278,E,0.00,0.00,071020,,,A*69
$GPRMC,163003.000,A,3150.7238,N,11711.7278,E,0.00,0.00,071020,,,A*69
$GPRMC,164001.000,A,3150.7238,N,11711.7278,E,0.00,0.00,071020,,,A*6C
$GPRMC,165002.000,A,3150.7238,N,11711.7278,E,0.00,0.00,071020,,,A*6E
$GPRMC,170001.000,A,3150.7238,N,11711.7278,E,0.00,0.00,071020,,,A*69
$GPRMC,171001.000,A,3150.7238,N,11711.7278,E,0.00,0.00,071020,,,A*68
$GPRMC,172002.000,A,3150.7238,N,11711.7278,E,0.00,0.00,071020,,,A*68
$GPRMC,173001.000,A,3150.7238,N,11711.7278,E,0.00,0.00,071020,,,A*6A
$GPRMC,174001.000,A,3150.7238,N,11711.7278,E,0.00,0.00,071020,,,A*6D
$GPRMC,175001.000,A,3150.7238,N,11711.7278,E,0.00,0.00,071020,,,A*6C
$GPRMC,180001.000,A,3150.7238,N,11711.7278,E,0.00,0.00,071020,,,A*66
$GPRMC,181000.000,A,3150.7238,N,11711.7278,E,0.00,0.00,071020,,,A*66
$GPRMC,182001.000,A,3150.7238,N,11711.7278,E,0.00,0.00,071020,,,A*64
$GPRMC,183000.000,A,3150.7238,N,11711.7278,E,0.00,0.00,071020,,,A*64
$GPRMC,184001.000,A,3150.7238,N,11711.7278,E,0.00,0.00,071020,,,A*62
$GPRMC,184959.000,A,3150.7238,N,11711.7278,E,0.00,0.00,071020,,,A*66
$GPRMC,190000.000,A,3150.7238,N,11711.7278,E,0.00,0.00,071020,,,A*66
$GPRMC,191002.000,A,3150.7238,N,11711.7278,E,0.00,0.00,071020,,,A*65
$GPRMC,192001.000,A,3150.7238,N,11711.7278,E,0.00,0.00,071020,,,A*65
$GPRMC,193001.000,A,3150.7238,N,11711.7278,E,0.00,0.00,071020,,,A*64
$GPRMC,194002.000,A,3150.7238,N,11711.7278,E,0.00,0.00,071020,,,A*60
$GPRMC,195000.000,A,3150.7238,N,11711.7278,E,0.00,0.00,071020,,,A*63
$GPRMC,200001.000,A,3150.7238,N,11711.7278,E,0.00,0.00,071020,,,A*6D
$GPRMC,201002.000,A,3150.7238,N,11711.7278,E,0.00,0.00,071020,,,A*6F
$GPRMC,202000.000,A,3150.7238,N,11711.7278,E,0.00,0.00,071020,,,A*6E
$GPRMC,203001.000,A,3150.7238,N,11711.7278,E,0.00,0.00,071020,,,A*6E
$GPRMC,204000.000,A,3150.7238,N,11711.7278,E,0.00,0.00,071020,,,A*68
$GPRMC,205000.000,A,3150.7238,N,11711.7278,E,0.00,0.00,071020,,,A*69
$GPRMC,210000.000,A,3150.7238,N,11711.7278,E,0.00,0.00,071020,,,A*6D
$GPRMC,211000.000,A,3150.7238,N,11711.7278,E,0.00,0.00,071020,,,A*6C
$GPRMC,211959.000,A,3150.7238,N,11711.7278,E,0.00,0.00,071020,,,A*69
$GPRMC,213000.000,A,3150.7238,N,11711.7278,E,0.00,0.00,071020,,,A*6E
$GPRMC,213959.000,A,3150.7238,N,11711.7278,E,0.00,0.00,071020,,,A*6B
$GPRMC,215000.000,A,3150.7238,N,11711.7278,E,0.00,0.00,071020,,,A*68
$GPRMC,215958.000,A,3150.7238,N,11711.7278,E,0.00,0.00,071020,,,A*6C
$GPRMC,220959.000,A,3150.7238,N,11711.7278,E,0.00,0.00,071020,,,A*6B
$GPRMC,221959.000,A,3150.7238,N,11711.7278,E,0.00,0.00,071020,,,A*6A
$GPRMC,222958.000,A,3150.7238,N,11711.7278,E,0.00,0.00,071020,,,A*68
$GPRMC,223959.000,A,3150.7238,N,11711.7278,E,0.00,0.00,071020,,,A*68
$GPRMC,224959.000,A,3150.7238,N,11711.7278,E,0.00,0.00,071020,,,A*6F
$GPRMC,225958.000,A,3150.7238,N,11711.7278,E,0.00,0.00,071020,,,A*6F
$GPRMC,230958.000,A,3150.7238,N,11711.7278,E,0.00,0.00,071020,,,A*6B
$GPRMC,231958.000,A,3150.7238,N,11711.7278,E,0.00,0.00,071020,,,A*6A
$GPRMC,232957.000,A,3150.7238,N,11711.7278,E,0.00,0.00,071020,,,A*66
$GPRMC,233958.000,A,3150.7238,N,11711.7278,E,0.00,0.00,071020,,,A*68
$GPRMC,234957.000,A,3150.7238,N,11711.7278,E,0.00,0.00,071020,,,A*60
$GPRMC,235958.000,A,3150.7238,N,11711.7278,E,0.00,0.00,071020,,,A*6E
$GPRMC,000957.000,A,3150.7238,N,11711.7278,E,0.00,0.00,081020,,,A*6A
$GPRMC,001957.000,A,3150.7238,N,11711.7278,E,0.00,0.00,081020,,,A*6B
$GPRMC,002957.000,A,3150.7238,N,11711.7278,E,0.00,0.00,081020,,,A*68
$GPRMC,003956.000,A,3150.7238,N,11711.7278,E,0.00,0.00,081020,,,A*68
$GPRMC,004956.000,A,3150.7238,N,11711.7278,E,0.00,0.00,081020,,,A*6F
$GPRMC,005957.000,A,3150.7238,N,11711.7278,E,0.00,0.00,081020,,,A*6F
$GPRMC,010955.000,A,3150.7238,N,11711.7278,E,0.00,0.00,081020,,,A*69
$GPRMC,011956.000,A,3150.7238,N,11711.7278,E,0.00,0.00,081020,,,A*6B
$GPRMC,012956.000,A,3150.7238,N,11711.7278,E,0.00,0.00,081020,,,A*68
$GPRMC,013955.000,A,3150.7238,N,11711.7278,E,0.00,0.00,081020,,,A*6A
$GPRMC,014955.000,A,3150.7238,N,11711.7278,E,0.00,0.00,081020,,,A*6D
$GPRMC,015956.000,A,3150.7238,N,11711.7278,E,0.00,0.00,081020,,,A*6F
$GPRMC,020955.000,A,3150.7238,N,11711.7278,E,0.00,0.00,081020,,,A*6A
$GPRMC,021955.000,A,3150.7238,N,11711.7278,E,0.00,0.00,081020,,,A*6B
$GPRMC,022955.000,A,3150.7238,N,11711.7278,E,0.00,0.00,081020,,,A*68
$GPRMC,023955.000,A,3150.7238,N,11711.7278,E,0.00,0.00,081020,,,A*69
$GPRMC,024955.000,A,3150.7238,N,11711.7278,E,0.00,0.00,081020,,,A*6E
$GPRMC,025954.000,A,3150.7238,N,11711.7278,E,0.00,0.00,081020,,,A*6E
$GPRMC,030955.000,A,3150.7238,N,11711.7278,E,0.00,0.00,081020,,,A*6B
$GPRMC,031954.000,A,3150.7238,N,11711.7278,E,0.00,0.00,081020,,,A*6B
$GPRMC,032954.000,A,3150.7238,N,11711.7278,E,0.00,0.00,081020,,,A*68
$GPRMC,033954.000,A,3150.7238,N,11711.7278,E,0.00,0.00,081020,,,A*69
$GPRMC,034953.000,A,3150.7238,N,11711.7278,E,0.00,0.00,081020,,,A*69
$GPRMC,035953.000,A,3150.7238,N,11711.7278,E,0.00,0.00,081020,,,A*68
$GPRMC,040954.000,A,3150.7238,N,11711.7278,E,0.00,0.00,081020,,,A*6D
$GPRMC,041952.000,A,3150.7238,N,11711.7278,E,0.00,0.00,081020,,,A*6A
$GPRMC,042953.000,A,3150.7238,N,11711.7278,E,0.00,0.00,081020,,,A*68
$GPRMC,043953.000,A,3150.7238,N,11711.7278,E,0.00,0.00,081020,,,A*69
$GPRMC,044952.000,A,3150.7238,N,11711.7278,E,0.00,0.00,081020,,,A*6F
$GPRMC,045953.000,A,3150.7238,N,11711.7278,E,0.00,0.00,081020,,,A*6F
$GPRMC,050952.000,A,3150.7238,N,11711.7278,E,0.00,0.00,081020,,,A*6A
$GPRMC,051953.000,A,3150.7238,N,11711.7278,E,0.00,0.00,081020,,,A*6A
$GPRMC,052952.000,A,3150.7238,N,11711.7278,E,0.00,0.00,081020,,,A*68
$GPRMC,060951.000,A,3150.7238,N,11711.7278,E,0.00,0.00,081020,,,A*6A
$GPRMC,061952.000,A,3150.7238,N,11711.7278,E,0.00,0.00,081020,,,A*68
$GPRMC,062951.000,A,3150.7238,N,11711.7278,E,0.00,0.00,081020,,,A*68
