$MSTAT,1602081001,2020-10-07T14:30:01Z,12.0728,0.1671,23.9198,42.7095,3.2113,1.2144,3.3165,15284992
$GPRMC,143003.000,A,3150.7238,N,11711.7278,E,0.00,0.00,071020,,,A*6B
$MSTAT,1602081600,2020-10-07T14:40:00Z,12.0719,0.1654,23.9624,43.1656,3.2114,1.2144,3.3164,15284896
$GPRMC,144002.000,A,3150.7238,N,11711.7278,E,0.00,0.00,071020,,,A*6D
$MSTAT,1602082201,2020-10-07T14:50:01Z,12.0722,0.1663,23.9204,42.7718,3.2109,1.2144,3.3164,15284896
$GPRMC,145002.000,A,3150.7238,N,11711.7278,E,0.00,0.00,071020,,,A*6C
$MSTAT,1602082801,2020-10-07T15:00:01Z,12.0700,0.1686,23.8735,42.9579,3.2110,1.2144,3.3157,15284896
$GPRMC,150001.000,A,3150.7238,N,11711.7278,E,0.00,0.00,071020,,,A*6B
$MSTAT,1602083400,2020-10-07T15:10:00Z,12.0677,0.1676,23.8312,42.8872,3.2112,1.2144,3.3165,15284896
$GPRMC,151001.000,A,3150.7238,N,11711.7278,E,0.00,0.00,071020,,,A*6A
$MSTAT,1602084001,2020-10-07T15:20:01Z,12.0736,0.1611,23.8061,42.8482,3.2110,1.2144,3.3164,15284896
$GPRMC,152003.000,A,3150.7238,N,11711.7278,E,0.00,0.00,071020,,,A*6B
$MSTAT,1602084600,2020-10-07T15:30:00Z,12.0750,0.1671,23.7975,42.8588,3.2118,1.2144,3.3173,15284896
$GPRMC,153001.000,A,3150.7238,N,11711.7278,E,0.00,0.00,071020,,,A*68
$MSTAT,1602085201,2020-10-07T15:40:01Z,12.0726,0.1649,23.8899,43.0535,3.2112,1.2144,3.3164,15284896
$GPRMC,154002.000,A,3150.7238,N,11711.7278,E,0.00,0.00,071020,,,A*6C
$MSTAT,1602085800,2020-10-07T15:50:00Z,12.0741,0.1674,23.7961,42.9123,3.2110,1.2144,3.3170,15284896
$GPRMC,155001.000,A,3150.7238,N,11711.7278,E,0.00,0.00,071020,,,A*6E
$MSTAT,1602086400,2020-10-07T16:00:00Z,12.0725,0.1627,23.8706,42.9770,3.2115,1.2144,3.3165,15284896
$GPRMC,160001.000,A,3150.7238,N,11711.7278,E,0.00,0.00,071020,,,A*68
$MSTAT,1602087001,2020-10-07T16:10:01Z,12.0720,0.1643,23.8159,42.6250,3.2109,1.2144,3.3159,15284896
$GPRMC,161001.000,A,3150.7238,N,11711.7278,E,0.00,0.00,071020,,,A*69
$MSTAT,1602087600,2020-10-07T16:20:00Z,12.0732,0.1725,23.7388,42.0310,3.2116,1.2144,3.3165,15284896
$MSTAT,1602088201,2020-10-07T16:30:01Z,12.0751,0.1692,23.6450,42.5433,3.2114,1.2144,3.3167,15284896
$GPRMC,163003.000,A,3150.7238,N,11711.7278,E,0.00,0.00,071020,,,A*69
$MSTAT,1602088800,2020-10-07T16:40:00Z,12.0693,0.1651,23.5814,42.5052,3.2109,1.2144,3.3158,15284896
$GPRMC,164001.000,A,3150.7238,N,11711.7278,E,0.00,0.00,071020,,,A*6C
$MSTAT,1602089401,2020-10-07T16:50:01Z,12.0741,0.1679,23.4879,42.5758,3.2116,1.2144,3.3164,15284896
$GPRMC,165002.000,A,3150.7238,N,11711.7278,E,0.00,0.00,071020,,,A*6E
$MSTAT,1602090000,2020-10-07T17:00:00Z,12.0746,0.1644,23.4367,42.4881,3.2118,1.2144,3.3168,15284896
$GPRMC,170001.000,A,3150.7238,N,11711.7278,E,0.00,0.00,071020,,,A*69
$MSTAT,1602090600,2020-10-07T17:10:00Z,12.0733,0.1606,23.5037,42.6684,3.2109,1.2144,3.3158,15284928
$GPRMC,171001.000,A,3150.7238,N,11711.7278,E,0.00,0.00,071020,,,A*68
$MSTAT,1602091201,2020-10-07T17:20:01Z,12.0725,0.1668,23.5713,42.6560,3.2115,1.2144,3.3170,15284928
$GPRMC,172002.000,A,3150.7238,N,11711.7278,E,0.00,0.00,071020,,,A*68
$MSTAT,1602091800,2020-10-07T17:30:00Z,12.0733,0.1606,23.6522,42.8561,3.2115,1.2144,3.3166,15284896
$GPRMC,173001.000,A,3150.7238,N,11711.7278,E,0.00,0.00,071020,,,A*6A
$MSTAT,1602092400,2020-10-07T17:40:00Z,12.0688,0.1665,23.6602,42.9671,3.2106,1.2144,3.3158,15284896
$GPRMC,174001.000,A,3150.7238,N,11711.7278,E,0.00,0.00,071020,,,A*6D
$MSTAT,1602093001,2020-10-07T17:50:01Z,12.0714,0.1646,23.6367,42.7535,3.2113,1.2144,3.3161,15284896
$GPRMC,175001.000,A,3150.7238,N,11711.7278,E,0.00,0.00,071020,,,A*6C
$MSTAT,1602093600,2020-10-07T18:00:00Z,12.0703,0.1657,23.6896,42.6674,3.2110,1.2144,3.3156,15284896
$GPRMC,180001.000,A,3150.7238,N,11711.7278,E,0.00,0.00,071020,,,A*66
$MSTAT,1602094201,2020-10-07T18:10:01Z,12.0723,0.1581,23.6139,42.8377,3.2114,1.2144,3.3163,15284896
$GPRMC,181000.000,A,3150.7238,N,11711.7278,E,0.00,0.00,071020,,,A*66
$MSTAT,1602094800,2020-10-07T18:20:00Z,12.0775,0.1541,23.5443,42.6547,3.2113,1.2144,3.3167,15284896
$GPRMC,182001.000,A,3150.7238,N,11711.7278,E,0.00,0.00,071020,,,A*64
$MSTAT,1602095400,2020-10-07T18:30:00Z,12.0713,0.1641,23.5325,42.4916,3.2114,1.2144,3.3161,15284896
$GPRMC,183000.000,A,3150.7238,N,11711.7278,E,0.00,0.00,071020,,,A*64
$MSTAT,1602096001,2020-10-07T18:40:01Z,12.0696,0.1616,23.5242,42.6994,3.2109,1.2144,3.3156,15284896
$GPRMC,184001.000,A,3150.7238,N,11711.7278,E,0.00,0.00,071020,,,A*62
$MSTAT,1602096600,2020-10-07T18:50:00Z,12.0717,0.1644,23.4844,42.5613,3.2112,1.2144,3.3167,15284896
$GPRMC,184959.000,A,3150.7238,N,11711.7278,E,0.00,0.00,071020,,,A*66
$MSTAT,1602097200,2020-10-07T19:00:00Z,12.0707,0.1630,23.4655,42.5804,3.2114,1.2144,3.3158,15284896
$GPRMC,190000.000,A,3150.7238,N,11711.7278,E,0.00,0.00,071020,,,A*66
$MSTAT,1602097801,2020-10-07T19:10:01Z,12.0715,0.1622,23.5164,42.6360,3.2116,1.2144,3.3165,15284896
$GPRMC,191002.000,A,3150.7238,N,11711.7278,E,0.00,0.00,071020,,,A*65
$MSTAT,1602098400,2020-10-07T19:20:00Z,12.0711,0.1681,23.4479,42.5988,3.2111,1.2144,3.3161,15284896
$GPRMC,192001.000,A,3150.7238,N,11711.7278,E,0.00,0.00,071020,,,A*65
$MSTAT,1602099000,2020-10-07T19:30:00Z,12.0684,0.1698,23.3938,42.4496,3.2115,1.2144,3.3165,15284896
$GPRMC,193001.000,A,3150.7238,N,11711.7278,E,0.00,0.00,071020,,,A*64
$MSTAT,1602099601,2020-10-07T19:40:01Z,12.0737,0.1727,23.3742,42.3023,3.2113,1.2144,3.3165,15284896
$GPRMC,194002.000,A,3150.7238,N,11711.7278,E,0.00,0.00,071020,,,A*60
$MSTAT,1602100200,2020-10-07T19:50:00Z,12.0732,0.1657,23.3328,42.4155,3.2112,1.2144,3.3164,15284896
$GPRMC,195000.000,A,3150.7238,N,11711.7278,E,0.00,0.00,071020,,,A*63
$MSTAT,1602100801,2020-10-07T20:00:01Z,12.0719,0.1644,23.3239,42.3503,3.2111,1.2144,3.3163,15284896
$GPRMC,200001.000,A,3150.7238,N,11711.7278,E,0.00,0.00,071020,,,A*6D
$MSTAT,1602101401,2020-10-07T20:10:01Z,12.0738,0.1665,23.3150,42.4132,3.2115,1.2144,3.3166,15284896
$GPRMC,201002.000,A,3150.7238,N,11711.7278,E,0.00,0.00,071020,,,A*6F
$MSTAT,1602102000,2020-10-07T20:20:00Z,12.0726,0.1611,23.2612,42.4523,3.2116,1.2144,3.3166,15284896
$GPRMC,202000.000,A,3150.7238,N,11711.7278,E,0.00,0.00,071020,,,A*6E
$MSTAT,1602102601,2020-10-07T20:30:01Z,12.0717,0.1660,23.2292,42.4058,3.2113,1.2144,3.3162,15284896
$GPRMC,203001.000,A,3150.7238,N,11711.7278,E,0.00,0.00,071020,,,A*6E
$MSTAT,1602103200,2020-10-07T20:40:00Z,12.0711,0.1619,23.2243,42.4238,3.2116,1.2144,3.3165,15284896
$GPRMC,204000.000,A,3150.7238,N,11711.7278,E,0.00,0.00,071020,,,A*68
$MSTAT,1602103800,2020-10-07T20:50:00Z,12.0719,0.1644,23.2122,42.2934,3.2112,1.2144,3.3162,15284896
$GPRMC,205000.000,A,3150.7238,N,11711.7278,E,0.00,0.00,071020,,,A*69
$MSTAT,1602104401,2020-10-07T21:00:01Z,12.0727,0.1641,23.2076,42.2548,3.2119,1.2144,3.3168,15284896
$GPRMC,210000.000,A,3150.7238,N,11711.7278,E,0.00,0.00,071020,,,A*6D
$MSTAT,1602105000,2020-10-07T21:10:00Z,12.0716,0.1638,23.1984,42.2842,3.2113,1.2144,3.3160,15284896
$GPRMC,211000.000,A,3150.7238,N,11711.7278,E,0.00,0.00,071020,,,A*6C
$MSTAT,1602105601,2020-10-07T21:20:01Z,12.0695,0.1638,23.1921,42.2248,3.2115,1.2144,3.3166,15284896
$GPRMC,211959.000,A,3150.7238,N,11711.7278,E,0.00,0.00,071020,,,A*69
$MSTAT,1602106201,2020-10-07T21:30:01Z,12.0743,0.1633,23.1961,42.3645,3.2117,1.2144,3.3169,15284896
$GPRMC,213000.000,A,3150.7238,N,11711.7278,E,0.00,0.00,071020,,,A*6E
$MSTAT,1602106800,2020-10-07T21:40:00Z,12.0749,0.1671,23.1930,42.3103,3.2116,1.2144,3.3166,15284896
$GPRMC,213959.000,A,3150.7238,N,11711.7278,E,0.00,0.00,071020,,,A*6B
$MSTAT,1602107401,2020-10-07T21:50:01Z,12.0712,0.1638,23.1662,42.2721,3.2119,1.2144,3.3166,15284896
$GPRMC,215000.000,A,3150.7238,N,11711.7278,E,0.00,0.00,071020,,,A*68
$MSTAT,1602108000,2020-10-07T22:00:00Z,12.0732,0.1606,23.1625,42.2820,3.2117,1.2144,3.3169,15284896
$GPRMC,215958.000,A,3150.7238,N,11711.7278,E,0.00,0.00,071020,,,A*6C
$MSTAT,1602108600,2020-10-07T22:10:00Z,12.0741,0.1625,23.1443,42.2874,3.2122,1.2144,3.3165,15284896
$GPRMC,220959.000,A,3150.7238,N,11711.7278,E,0.00,0.00,071020,,,A*6B
$MSTAT,1602109201,2020-10-07T22:20:01Z,12.0713,0.1627,23.1458,42.3847,3.2118,1.2144,3.3164,15284896
$GPRMC,221959.000,A,3150.7238,N,11711.7278,E,0.00,0.00,071020,,,A*6A
$MSTAT,1602109800,2020-10-07T22:30:00Z,12.0718,0.1622,23.1136,42.2617,3.2117,1.2144,3.3166,15284896
$GPRMC,222958.000,A,3150.7238,N,11711.7278,E,0.00,0.00,071020,,,A*68
$MSTAT,1602110401,2020-10-07T22:40:01Z,12.0729,0.1641,23.1159,42.3077,3.2117,1.2144,3.3168,15284896
$GPRMC,223959.000,A,3150.7238,N,11711.7278,E,0.00,0.00,071020,,,A*68
$MSTAT,1602111001,2020-10-07T22:50:01Z,12.0727,0.1665,23.1110,42.2404,3.2112,1.2144,3.3167,15284896
$GPRMC,224959.000,A,3150.7238,N,11711.7278,E,0.00,0.00,071020,,,A*6F
$MSTAT,1602111600,2020-10-07T23:00:00Z,12.0711,0.1636,23.0969,42.3258,3.2116,1.2144,3.3167,15284896
$GPRMC,225958.000,A,3150.7238,N,11711.7278,E,0.00,0.00,071020,,,A*6F
$MSTAT,1602112201,2020-10-07T23:10:01Z,12.0734,0.1638,23.0727,42.2708,3.2117,1.2144,3.3167,15284896
$GPRMC,230958.000,A,3150.7238,N,11711.7278,E,0.00,0.00,071020,,,A*6B
$MSTAT,1602112800,2020-10-07T23:20:00Z,12.0740,0.1649,23.0828,42.2683,3.2117,1.2144,3.3165,15284896
$GPRMC,231958.000,A,3150.7238,N,11711.7278,E,0.00,0.00,071020,,,A*6A
$MSTAT,1602113400,2020-10-07T23:30:00Z,12.0704,0.1630,23.0502,42.1630,3.2113,1.2144,3.3162,15284896
$GPRMC,232957.000,A,3150.7238,N,11711.7278,E,0.00,0.00,071020,,,A*66
$MSTAT,1602114001,2020-10-07T23:40:01Z,12.0724,0.1641,23.0678,42.1469,3.2118,1.2144,3.3167,15284896
$GPRMC,233958.000,A,3150.7238,N,11711.7278,E,0.00,0.00,071020,,,A*68
$MSTAT,1602114600,2020-10-07T23:50:00Z,12.0725,0.1663,23.0477,42.2042,3.2114,1.2144,3.3167,15284896
$GPRMC,234957.000,A,3150.7238,N,11711.7278,E,0.00,0.00,071020,,,A*60
$MSTAT,1602115201,2020-10-08T00:00:01Z,12.0709,0.1649,23.0197,42.0961,3.2116,1.2144,3.3163,15284896
$GPRMC,235958.000,A,3150.7238,N,11711.7278,E,0.00,0.00,071020,,,A*6E
$MSTAT,1602115801,2020-10-08T00:10:01Z,12.0726,0.1657,23.0292,42.1939,3.2118,1.2144,3.3161,15284896
$GPRMC,000957.000,A,3150.7238,N,11711.7278,E,0.00,0.00,081020,,,A*6A
$MSTAT,1602116400,2020-10-08T00:20:00Z,12.0731,0.1663,23.0226,42.1575,3.2120,1.2144,3.3168,15284896
$GPRMC,001957.000,A,3150.7238,N,11711.7278,E,0.00,0.00,081020,,,A*6B
$MSTAT,1602117001,2020-10-08T00:30:01Z,12.0712,0.1603,23.0111,42.1539,3.2118,1.2144,3.3164,15284896
$GPRMC,002957.000,A,3150.7238,N,11711.7278,E,0.00,0.00,081020,,,A*68
$MSTAT,1602117600,2020-10-08T00:40:00Z,12.0757,0.1644,23.0080,42.0901,3.2118,1.2144,3.3162,15284896
$GPRMC,003956.000,A,3150.7238,N,11711.7278,E,0.00,0.00,081020,,,A*68
$MSTAT,1602118200,2020-10-08T00:50:00Z,12.0712,0.1581,22.9838,42.1724,3.2120,1.2144,3.3162,15284896
$GPRMC,004956.000,A,3150.7238,N,11711.7278,E,0.00,0.00,081020,,,A*6F
$MSTAT,1602118801,2020-10-08T01:00:01Z,12.0729,0.1644,22.9677,42.1042,3.2119,1.2144,3.3170,15284896
$GPRMC,005957.000,A,3150.7238,N,11711.7278,E,0.00,0.00,081020,,,A*6F
$MSTAT,1602119400,2020-10-08T01:10:00Z,12.0696,0.1616,22.9772,42.1758,3.2118,1.2144,3.3158,15284896
$GPRMC,010955.000,A,3150.7238,N,11711.7278,E,0.00,0.00,081020,,,A*69
$MSTAT,1602120000,2020-10-08T01:20:00Z,12.0740,0.1611,22.9553,41.9956,3.2117,1.2144,3.3163,15284896
$GPRMC,011956.000,A,3150.7238,N,11711.7278,E,0.00,0.00,081020,,,A*6B
$MSTAT,1602120601,2020-10-08T01:30:01Z,12.0707,0.1684,22.9392,42.0463,3.2119,1.2144,3.3163,15284896
$GPRMC,012956.000,A,3150.7238,N,11711.7278,E,0.00,0.00,081020,,,A*68
$MSTAT,1602121200,2020-10-08T01:40:00Z,12.0736,0.1668,22.9277,42.1199,3.2121,1.2144,3.3165,15284896
$GPRMC,013955.000,A,3150.7238,N,11711.7278,E,0.00,0.00,081020,,,A*6A
$MSTAT,1602121801,2020-10-08T01:50:01Z,12.0732,0.1649,22.9360,42.0482,3.2120,1.2144,3.3165,15284896
$GPRMC,014955.000,A,3150.7238,N,11711.7278,E,0.00,0.00,081020,,,A*6D
$MSTAT,1602122400,2020-10-08T02:00:00Z,12.0761,0.1476,22.9179,42.0583,3.2112,1.2144,3.3162,15284896
$GPRMC,015956.000,A,3150.7238,N,11711.7278,E,0.00,0.00,081020,,,A*6F
$MSTAT,1602123000,2020-10-08T02:10:00Z,12.0726,0.1665,22.8860,42.0789,3.2121,1.2144,3.3163,15284896
$GPRMC,020955.000,A,3150.7238,N,11711.7278,E,0.00,0.00,081020,,,A*6A
$MSTAT,1602123601,2020-10-08T02:20:01Z,12.0737,0.1614,22.8747,42.0507,3.2118,1.2144,3.3162,15284896
$GPRMC,021955.000,A,3150.7238,N,11711.7278,E,0.00,0.00,081020,,,A*6B
$MSTAT,1602124200,2020-10-08T02:30:00Z,12.0738,0.1679,22.8753,42.0414,3.2121,1.2144,3.3166,15284896
$GPRMC,022955.000,A,3150.7238,N,11711.7278,E,0.00,0.00,081020,,,A*68
$MSTAT,1602124800,2020-10-08T02:40:00Z,12.0696,0.1714,22.8356,42.0118,3.2120,1.2144,3.3161,15284896
$GPRMC,023955.000,A,3150.7238,N,11711.7278,E,0.00,0.00,081020,,,A*69
$MSTAT,1602125401,2020-10-08T02:50:01Z,12.0692,0.1670,22.8485,41.9365,3.2118,1.2144,3.3153,15284896
$GPRMC,024955.000,A,3150.7238,N,11711.7278,E,0.00,0.00,081020,,,A*6E
$MSTAT,1602126000,2020-10-08T03:00:00Z,12.0737,0.1676,22.8396,42.0105,3.2120,1.2144,3.3162,15284896
$GPRMC,025954.000,A,3150.7238,N,11711.7278,E,0.00,0.00,081020,,,A*6E
$MSTAT,1602126600,2020-10-08T03:10:00Z,12.0712,0.1614,22.8051,41.9427,3.2114,1.2144,3.3162,15284896
$GPRMC,030955.000,A,3150.7238,N,11711.7278,E,0.00,0.00,081020,,,A*6B
$MSTAT,1602127201,2020-10-08T03:20:01Z,12.0737,0.1611,22.7910,41.9936,3.2119,1.2144,3.3167,15284896
$GPRMC,031954.000,A,3150.7238,N,11711.7278,E,0.00,0.00,081020,,,A*6B
$MSTAT,1602127800,2020-10-08T03:30:00Z,12.0724,0.1700,22.8149,41.8855,3.2123,1.2144,3.3166,15284896
$GPRMC,032954.000,A,3150.7238,N,11711.7278,E,0.00,0.00,081020,,,A*68
$MSTAT,1602128401,2020-10-08T03:40:01Z,12.0728,0.1646,22.7809,41.9182,3.2123,1.2144,3.3163,15284896
$GPRMC,033954.000,A,3150.7238,N,11711.7278,E,0.00,0.00,081020,,,A*69
$MSTAT,1602129000,2020-10-08T03:50:00Z,12.0711,0.1681,22.7749,41.8557,3.2120,1.2144,3.3159,15284896
$GPRMC,034953.000,A,3150.7238,N,11711.7278,E,0.00,0.00,081020,,,A*69
$MSTAT,1602129600,2020-10-08T04:00:00Z,12.0729,0.1649,22.7645,41.8446,3.2126,1.2144,3.3166,15284896
$GPRMC,035953.000,A,3150.7238,N,11711.7278,E,0.00,0.00,081020,,,A*68
$MSTAT,1602130201,2020-10-08T04:10:01Z,12.0733,0.1644,22.7625,41.9021,3.2126,1.2144,3.3167,15284896
$GPRMC,040954.000,A,3150.7238,N,11711.7278,E,0.00,0.00,081020,,,A*6D
$MSTAT,1602130800,2020-10-08T04:20:00Z,12.0725,0.1557,22.7559,41.9152,3.2121,1.2144,3.3163,15284896
$GPRMC,041952.000,A,3150.7238,N,11711.7278,E,0.00,0.00,081020,,,A*6A
$MSTAT,1602131401,2020-10-08T04:30:01Z,12.0719,0.1636,22.7683,41.9651,3.2122,1.2144,3.3166,15284896
$GPRMC,042953.000,A,3150.7238,N,11711.7278,E,0.00,0.00,081020,,,A*68
$MSTAT,1602132001,2020-10-08T04:40:01Z,12.0721,0.1663,22.7294,41.8395,3.2124,1.2144,3.3164,15284896
$GPRMC,043953.000,A,3150.7238,N,11711.7278,E,0.00,0.00,081020,,,A*69
$MSTAT,1602132600,2020-10-08T04:50:00Z,12.0742,0.1625,22.7334,41.8715,3.2122,1.2144,3.3164,15284896
$GPRMC,044952.000,A,3150.7238,N,11711.7278,E,0.00,0.00,081020,,,A*6F
$MSTAT,1602133201,2020-10-08T05:00:01Z,12.0718,0.1654,22.7242,41.9053,3.2117,1.2144,3.3159,15284896
$GPRMC,045953.000,A,3150.7238,N,11711.7278,E,0.00,0.00,081020,,,A*6F
$MSTAT,1602133800,2020-10-08T05:10:00Z,12.0715,0.1609,22.7260,41.9104,3.2123,1.2144,3.3164,15284896
$GPRMC,050952.000,A,3150.7238,N,11711.7278,E,0.00,0.00,081020,,,A*6A
$MSTAT,1602134400,2020-10-08T05:20:00Z,12.0719,0.1684,22.7343,41.8889,3.2121,1.2144,3.3162,15284896
$GPRMC,051953.000,A,3150.7238,N,11711.7278,E,0.00,0.00,081020,,,A*6A
$MSTAT,1602135001,2020-10-08T05:30:01Z,12.0732,0.1625,22.7271,41.8685,3.2124,1.2144,3.3163,15284896
$GPRMC,052952.000,A,3150.7238,N,11711.7278,E,0.00,0.00,081020,,,A*68
$M0,0.00,081020,,,A*6F
$MSTAT,1602137400,2020-10-08T06:10:00Z,12.0733,0.1676,22.8195,41.8946,3.2121,1.2144,3.3165,15284896
$GPRMC,060951.000,A,3150.7238,N,11711.7278,E,0.00,0.00,081020,,,A*6A
$MSTAT,1602138001,2020-10-08T06:20:01Z,12.0751,0.1628,22.8022,42.0112,3.2125,1.2144,3.3168,15284896
$GPRMC,061952.000,A,3150.7238,N,11711.7278,E,0.00,0.00,081020,,,A*68
$MSTAT,1602138600,2020-10-08T06:30:00Z,12.0714,0.1662,22.6215,41.7424,3.2118,1.2144,3.3159,15284896
$GPRMC,062951.000,A,3150.7238,N,11711.7278,E,0.00,0.00,081020,,,A*68
